{
"type": "FeatureCollection",
"name": "rmi_school",
"crs": { "type": "name", "properties": { "name": "urn:ogc:def:crs:OGC:1.3:CRS84" } },
"features": [
{ "type": "Feature", "properties": { "Name": "Aerok elementary school", "tessellate": -1, "extrude": 0, "visibility": -1, "Sch id": "AIL100", "Type": "Primary", "Authority": "Public", "Island": "Aerok", "x": 168.82215221277573, "y": 7.2789246815527697 }, "geometry": { "type": "Point", "coordinates": [ 168.82215221277599, 7.27892468155277 ] } },
{ "type": "Feature", "properties": { "Name": "Aerok Elementary School", "tessellate": -1, "extrude": 0, "visibility": -1, "Sch id": "MAL101", "Type": "Primary", "Authority": "Public", "Island": "Aerok", "x": 171.1889, "y": 8.5015 }, "geometry": { "type": "Point", "coordinates": [ 171.1889, 8.5015 ] } },
{ "type": "Feature", "properties": { "Name": "Ailuk Elementary School", "tessellate": -1, "extrude": 0, "visibility": -1, "Sch id": "ALU101", "Type": "Primary", "Authority": "Public", "Island": "Ailuk", "x": 169.9814712925768, "y": 10.222562979225241 }, "geometry": { "type": "Point", "coordinates": [ 169.981471292576998, 10.2225629792252 ] } },
{ "type": "Feature", "properties": { "Name": "Ajeltake Cristian Academy", "tessellate": -1, "extrude": 0, "visibility": -1, "Sch id": "MAJ102", "Type": "Primary", "Authority": "Baptist Church", "Island": "Ajeltake", "x": 171.2005, "y": 7.0634 }, "geometry": { "type": "Point", "coordinates": [ 171.2005, 7.0634 ] } },
{ "type": "Feature", "properties": { "Name": "Ajeltake Elementary School", "tessellate": -1, "extrude": 0, "visibility": -1, "Sch id": "MAJ101", "Type": "Primary", "Authority": "Public", "Island": "Ajeltake", "x": 171.1911, "y": 7.0654 }, "geometry": { "type": "Point", "coordinates": [ 171.1911, 7.0654 ] } },
{ "type": "Feature", "properties": { "Name": "Arno elementary school", "tessellate": -1, "extrude": 0, "visibility": -1, "Sch id": "ARN101", "Type": "Primary", "Authority": "Public", "Island": "Arno", "x": 171.55394373540224, "y": 7.0656433357212363 }, "geometry": { "type": "Point", "coordinates": [ 171.553943735401987, 7.06564333572124 ] } },
{ "type": "Feature", "properties": { "Name": "Aur Elementary School", "tessellate": -1, "extrude": 0, "visibility": -1, "Sch id": "AUR101", "Type": "Primary", "Authority": "Public", "Island": "Aur", "x": 171.16956173970047, "y": 8.1491637152627607 }, "geometry": { "type": "Point", "coordinates": [ 171.169561739699986, 8.149163715262761 ] } },
{ "type": "Feature", "properties": { "Name": "Bikarej Elementary School", "tessellate": -1, "extrude": 0, "visibility": -1, "Sch id": "ARN102", "Type": "Primary", "Authority": "Public", "Island": "Bikarej", "x": 171.63820072461613, "y": 7.2406966239997841 }, "geometry": { "type": "Point", "coordinates": [ 171.638200724616013, 7.24069662399978 ] } },
{ "type": "Feature", "properties": { "Name": "Bouj Elementary School", "tessellate": -1, "extrude": 0, "visibility": -1, "Sch id": "AIL101", "Type": "Primary", "Authority": "Public", "Island": "Bouj", "x": 168.7489, "y": 7.2903 }, "geometry": { "type": "Point", "coordinates": [ 168.7489, 7.2903 ] } },
{ "type": "Feature", "properties": { "Name": "Carlos Elementary School", "tessellate": -1, "extrude": 0, "visibility": -1, "Sch id": "KWA101", "Type": "Primary", "Authority": "Public", "Island": "Carlos", "x": 167.62027297848184, "y": 8.7961813458315348 }, "geometry": { "type": "Point", "coordinates": [ 167.620272978482006, 8.796181345831529 ] } },
{ "type": "Feature", "properties": { "Name": "Delap Elementary School", "tessellate": -1, "extrude": 0, "visibility": -1, "Sch id": "MAJ105", "Type": "Primary", "Authority": "Public", "Island": "Delap", "x": 171.3818, "y": 7.0886 }, "geometry": { "type": "Point", "coordinates": [ 171.3818, 7.0886 ] } },
{ "type": "Feature", "properties": { "Name": "Delap Kindergarten", "tessellate": -1, "extrude": 0, "visibility": -1, "Sch id": "MAJ106", "Type": "Kindergarten", "Authority": "Public", "Island": "Delap", "x": 171.3818, "y": 7.0886 }, "geometry": { "type": "Point", "coordinates": [ 171.3818, 7.0886 ] } },
{ "type": "Feature", "properties": { "Name": "Delap SDA Elementary School", "tessellate": -1, "extrude": 0, "visibility": -1, "Sch id": "MAJ107", "Type": "Primary", "Authority": "Seventh Day Adventist Church", "Island": "Delap", "x": 171.3818, "y": 7.0886 }, "geometry": { "type": "Point", "coordinates": [ 171.3818, 7.0886 ] } },
{ "type": "Feature", "properties": { "Name": "Delap SDA High School", "tessellate": -1, "extrude": 0, "visibility": -1, "Sch id": "MAJ108", "Type": "Secondary", "Authority": "Seventh Day Adventist Church", "Island": "Delap", "x": 171.3818, "y": 7.0886 }, "geometry": { "type": "Point", "coordinates": [ 171.3818, 7.0886 ] } },
{ "type": "Feature", "properties": { "Name": "Majuro Coop Elementary School", "tessellate": -1, "extrude": 0, "visibility": -1, "Sch id": "MAJ116", "Type": "Primary", "Authority": "Coop Board of Directors", "Island": "Delap", "x": 171.3834, "y": 7.0912 }, "geometry": { "type": "Point", "coordinates": [ 171.3834, 7.0912 ] } },
{ "type": "Feature", "properties": { "Name": "Majuro Coop High School", "tessellate": -1, "extrude": 0, "visibility": -1, "Sch id": "MAJ117", "Type": "Secondary", "Authority": "Coop Board of Directors", "Island": "Delap", "x": 171.3838, "y": 7.0911 }, "geometry": { "type": "Point", "coordinates": [ 171.3838, 7.0911 ] } },
{ "type": "Feature", "properties": { "Name": "Ebadon Elementary School", "tessellate": -1, "extrude": 0, "visibility": -1, "Sch id": "KWA102", "Type": "Primary", "Authority": "Public", "Island": "Ebadon", "x": 166.82978217114513, "y": 9.3260391603589987 }, "geometry": { "type": "Point", "coordinates": [ 166.829782171145013, 9.326039160359 ] } },
{ "type": "Feature", "properties": { "Name": "Ebeye Calvary Elementary School", "tessellate": -1, "extrude": 0, "visibility": -1, "Sch id": "KWA103", "Type": "Primary", "Authority": "Assembly of God Church", "Island": "Ebeye", "x": 167.7325, "y": 8.7206 }, "geometry": { "type": "Point", "coordinates": [ 167.7325, 8.7206 ] } },
{ "type": "Feature", "properties": { "Name": "Ebeye Calvary High School", "tessellate": -1, "extrude": 0, "visibility": -1, "Sch id": "KWA104", "Type": "Secondary", "Authority": "Assembly of God Church", "Island": "Ebeye", "x": 167.7376, "y": 8.7768 }, "geometry": { "type": "Point", "coordinates": [ 167.7376, 8.7768 ] } },
{ "type": "Feature", "properties": { "Name": "Ebeye Christian Elementary School", "tessellate": -1, "extrude": 0, "visibility": -1, "Sch id": "KWA105", "Type": "Primary", "Authority": "United Church of Christ", "Island": "Ebeye", "x": 167.7325, "y": 8.7206 }, "geometry": { "type": "Point", "coordinates": [ 167.7325, 8.7206 ] } },
{ "type": "Feature", "properties": { "Name": "Ebeye kinder elementary school", "tessellate": -1, "extrude": 0, "visibility": -1, "Sch id": "KWA106", "Type": "Kindergarten", "Authority": "Public", "Island": "Ebeye", "x": 167.7325, "y": 8.7206 }, "geometry": { "type": "Point", "coordinates": [ 167.7325, 8.7206 ] } },
{ "type": "Feature", "properties": { "Name": "Ebeye middle elementary school", "tessellate": -1, "extrude": 0, "visibility": -1, "Sch id": "KWA107", "Type": "Primary", "Authority": "Public", "Island": "Ebeye", "x": 167.7325, "y": 8.7206 }, "geometry": { "type": "Point", "coordinates": [ 167.7325, 8.7206 ] } },
{ "type": "Feature", "properties": { "Name": "Ebeye Public Elementary School", "tessellate": -1, "extrude": 0, "visibility": -1, "Sch id": "KWA108", "Type": "Primary", "Authority": "Public", "Island": "Ebeye", "x": 167.7325, "y": 8.7206 }, "geometry": { "type": "Point", "coordinates": [ 167.7325, 8.7206 ] } },
{ "type": "Feature", "properties": { "Name": "Ebeye SDA Elementary School", "tessellate": -1, "extrude": 0, "visibility": -1, "Sch id": "KWA109", "Type": "Primary", "Authority": "Seventh Day Adventist Church", "Island": "Ebeye", "x": 167.7325, "y": 8.7206 }, "geometry": { "type": "Point", "coordinates": [ 167.7325, 8.7206 ] } },
{ "type": "Feature", "properties": { "Name": "Ebeye SDA High School", "tessellate": -1, "extrude": 0, "visibility": -1, "Sch id": "KWA110", "Type": "Secondary", "Authority": "Seventh Day Adventist Church", "Island": "Ebeye", "x": 167.73783413373161, "y": 8.7822713328557533 }, "geometry": { "type": "Point", "coordinates": [ 167.737834133732008, 8.78227133285575 ] } },
{ "type": "Feature", "properties": { "Name": "Father Hacker High School", "tessellate": -1, "extrude": 0, "visibility": -1, "Sch id": "KWA118", "Type": "Secondary", "Authority": "Roman catholic Church", "Island": "Ebeye", "x": 167.7273, "y": 8.7206 }, "geometry": { "type": "Point", "coordinates": [ 167.7273, 8.7206 ] } },
{ "type": "Feature", "properties": { "Name": "GEM Elementary School", "tessellate": -1, "extrude": 0, "visibility": -1, "Sch id": "KWA112", "Type": "Primary", "Authority": "Full Gospel Church", "Island": "Ebeye", "x": 167.7273, "y": 8.7206 }, "geometry": { "type": "Point", "coordinates": [ 167.7273, 8.7206 ] } },
{ "type": "Feature", "properties": { "Name": "GEM High School", "tessellate": -1, "extrude": 0, "visibility": -1, "Sch id": "KWA113", "Type": "Secondary", "Authority": "Full Gospel Church", "Island": "Ebeye", "x": 167.7376, "y": 8.7768 }, "geometry": { "type": "Point", "coordinates": [ 167.7376, 8.7768 ] } },
{ "type": "Feature", "properties": { "Name": "Jabro Elementary School", "tessellate": -1, "extrude": 0, "visibility": -1, "Sch id": "KWA115", "Type": "Primary", "Authority": "Imata Kabua", "Island": "Ebeye", "x": 168.93763220385486, "y": 7.4890170585532081 }, "geometry": { "type": "Point", "coordinates": [ 168.937632203855003, 7.48901705855321 ] } },
{ "type": "Feature", "properties": { "Name": "Jabro High School", "tessellate": -1, "extrude": 0, "visibility": -1, "Sch id": "KWA114", "Type": "Secondary", "Authority": "Imata Kabua", "Island": "Ebeye", "x": 167.7376, "y": 8.7768 }, "geometry": { "type": "Point", "coordinates": [ 167.7376, 8.7768 ] } },
{ "type": "Feature", "properties": { "Name": "Kwajalein Atoll High School", "tessellate": -1, "extrude": 0, "visibility": -1, "Sch id": "KWA116", "Type": "Secondary", "Authority": "Public", "Island": "Ebeye", "x": 167.7273, "y": 8.7206 }, "geometry": { "type": "Point", "coordinates": [ 167.7273, 8.7206 ] } },
{ "type": "Feature", "properties": { "Name": "Queen of Peace Elementary School", "tessellate": -1, "extrude": 0, "visibility": -1, "Sch id": "KWA117", "Type": "Primary", "Authority": "Roman catholic Church", "Island": "Ebeye", "x": 167.7273, "y": 8.7206 }, "geometry": { "type": "Point", "coordinates": [ 167.7273, 8.7206 ] } },
{ "type": "Feature", "properties": { "Name": "Ebon Elementary School", "tessellate": -1, "extrude": 0, "visibility": -1, "Sch id": "EBO101", "Type": "Primary", "Authority": "Public", "Island": "Ebon", "x": 168.69092285548228, "y": 4.5879683650518999 }, "geometry": { "type": "Point", "coordinates": [ 168.690922855482, 4.5879683650519 ] } },
{ "type": "Feature", "properties": { "Name": "Ejit Elementary School", "tessellate": -1, "extrude": 0, "visibility": -1, "Sch id": "KIL101", "Type": "Primary", "Authority": "Public", "Island": "Ejit", "x": 171.36002485699612, "y": 7.1242914478806236 }, "geometry": { "type": "Point", "coordinates": [ 171.360024856996006, 7.12429144788062 ] } },
{ "type": "Feature", "properties": { "Name": "Enejelar Elementary School", "tessellate": -1, "extrude": 0, "visibility": -1, "Sch id": "ALU102", "Type": "Primary", "Authority": "Public", "Island": "Enejelar", "x": 169.95781175267626, "y": 10.447486372458911 }, "geometry": { "type": "Point", "coordinates": [ 169.957811752676008, 10.447486372458901 ] } },
{ "type": "Feature", "properties": { "Name": "Enejet Elementary School", "tessellate": -1, "extrude": 0, "visibility": -1, "Sch id": "MIL101", "Type": "Primary", "Authority": "Public", "Island": "Enejet", "x": 171.9434, "y": 6.0379 }, "geometry": { "type": "Point", "coordinates": [ 171.9434, 6.0379 ] } },
{ "type": "Feature", "properties": { "Name": "Enekoion Elementary School", "tessellate": -1, "extrude": 0, "visibility": -1, "Sch id": "EBO102", "Type": "Primary", "Authority": "Public", "Island": "Enekoion", "x": 168.6672207304282, "y": 4.6660478619701564 }, "geometry": { "type": "Point", "coordinates": [ 168.667220730427999, 4.66604786197016 ] } },
{ "type": "Feature", "properties": { "Name": "Enewa Elementary school", "tessellate": -1, "extrude": 0, "visibility": -1, "Sch id": "AIL102", "Type": "Primary", "Authority": "Public", "Island": "Enewa", "x": 168.6953, "y": 7.2984 }, "geometry": { "type": "Point", "coordinates": [ 168.6953, 7.2984 ] } },
{ "type": "Feature", "properties": { "Name": "Enewetak Elementary School", "tessellate": -1, "extrude": 0, "visibility": -1, "Sch id": "ENE101", "Type": "Primary", "Authority": "Public", "Island": "Enewetak", "x": 162.34390320055687, "y": 11.35358034507461 }, "geometry": { "type": "Point", "coordinates": [ 162.343903200557008, 11.353580345074599 ] } },
{ "type": "Feature", "properties": { "Name": "Ennibur Elementary School", "tessellate": -1, "extrude": 0, "visibility": -1, "Sch id": "KWA111", "Type": "Primary", "Authority": "Public", "Island": "Enniburr", "x": 167.7273, "y": 8.7206 }, "geometry": { "type": "Point", "coordinates": [ 167.7273, 8.7206 ] } },
{ "type": "Feature", "properties": { "Name": "Imiej Elementary School", "tessellate": -1, "extrude": 0, "visibility": -1, "Sch id": "JAL101", "Type": "Primary", "Authority": "Public", "Island": "Imiej", "x": 169.7197838705666, "y": 6.0131996750648797 }, "geometry": { "type": "Point", "coordinates": [ 169.719783870566999, 6.01319967506488 ] } },
{ "type": "Feature", "properties": { "Name": "Imroj Elementary School", "tessellate": -1, "extrude": 0, "visibility": -1, "Sch id": "JAL102", "Type": "Primary", "Authority": "Public", "Island": "Imroj", "x": 169.60890837667603, "y": 6.0713763192041519 }, "geometry": { "type": "Point", "coordinates": [ 169.608908376675998, 6.07137631920415 ] } },
{ "type": "Feature", "properties": { "Name": "Ine Elementary School", "tessellate": -1, "extrude": 0, "visibility": -1, "Sch id": "ARN103", "Type": "Primary", "Authority": "Public", "Island": "Ine", "x": 171.701860839641, "y": 6.9816937483780297 }, "geometry": { "type": "Point", "coordinates": [ 171.701860839641, 6.98169374837803 ] } },
{ "type": "Feature", "properties": { "Name": "Jabat Elementary School", "tessellate": -1, "extrude": 0, "visibility": -1, "Sch id": "JAB101", "Type": "Primary", "Authority": "Public", "Island": "Jabat", "x": 168.97540327530274, "y": 7.7532746945285496 }, "geometry": { "type": "Point", "coordinates": [ 168.975403275302995, 7.75327469452855 ] } },
{ "type": "Feature", "properties": { "Name": "Jabor Elementary School", "tessellate": -1, "extrude": 0, "visibility": -1, "Sch id": "JAL104", "Type": "Primary", "Authority": "Public", "Island": "Jabor", "x": 169.64224143490483, "y": 5.9234731186472764 }, "geometry": { "type": "Point", "coordinates": [ 169.642241434905003, 5.92347311864727 ] } },
{ "type": "Feature", "properties": { "Name": "JHS Elementary School", "tessellate": -1, "extrude": 0, "visibility": -1, "Sch id": "JAL106", "Type": "Secondary", "Authority": "Public", "Island": "Jabor", "x": 169.5965, "y": 5.7911 }, "geometry": { "type": "Point", "coordinates": [ 169.5965, 5.7911 ] } },
{ "type": "Feature", "properties": { "Name": "St Joseph Elementary School", "tessellate": -1, "extrude": 0, "visibility": -1, "Sch id": "JAL109", "Type": "Primary", "Authority": "Roman catholic Church", "Island": "Jabor", "x": 169.6424, "y": 5.9223 }, "geometry": { "type": "Point", "coordinates": [ 169.6424, 5.9223 ] } },
{ "type": "Feature", "properties": { "Name": "Jah Elementary School", "tessellate": -1, "extrude": 0, "visibility": -1, "Sch id": "AIL103", "Type": "Primary", "Authority": "Public", "Island": "Jah", "x": 168.9378, "y": 7.4893 }, "geometry": { "type": "Point", "coordinates": [ 168.9378, 7.4893 ] } },
{ "type": "Feature", "properties": { "Name": "Jaluit Elementary School", "tessellate": -1, "extrude": 0, "visibility": -1, "Sch id": "JAL105", "Type": "Primary", "Authority": "Public", "Island": "Jaluit", "x": 169.5965, "y": 5.7911 }, "geometry": { "type": "Point", "coordinates": [ 169.5965, 5.7911 ] } },
{ "type": "Feature", "properties": { "Name": "Jang Elementary School", "tessellate": -1, "extrude": 0, "visibility": -1, "Sch id": "MAL102", "Type": "Primary", "Authority": "Public", "Island": "Jang", "x": 171.06207765631757, "y": 8.86127424294442 }, "geometry": { "type": "Point", "coordinates": [ 171.062077656317996, 8.86127424294442 ] } },
{ "type": "Feature", "properties": { "Name": "Janodren Elementary School", "tessellate": -1, "extrude": 0, "visibility": -1, "Sch id": "JAL103", "Type": "Primary", "Authority": "Public", "Island": "Janodren", "x": 169.40836249026816, "y": 6.2659916233239636 }, "geometry": { "type": "Point", "coordinates": [ 169.40836249026799, 6.26599162332396 ] } },
{ "type": "Feature", "properties": { "Name": "Japo Elementary School", "tessellate": -1, "extrude": 0, "visibility": -1, "Sch id": "ARN104", "Type": "Primary", "Authority": "Public", "Island": "Japo", "x": 171.68084175983995, "y": 6.9931342084775103 }, "geometry": { "type": "Point", "coordinates": [ 171.680841759840007, 6.99313420847751 ] } },
{ "type": "Feature", "properties": { "Name": "Jebal Elementary School", "tessellate": -1, "extrude": 0, "visibility": -1, "Sch id": "LIK101", "Type": "Primary", "Authority": "Public", "Island": "Jebal", "x": 169.26941965492537, "y": 9.8914797699502603 }, "geometry": { "type": "Point", "coordinates": [ 169.269419654925002, 9.89147976995026 ] } },
{ "type": "Feature", "properties": { "Name": "Jeh Elementary School", "tessellate": -1, "extrude": 0, "visibility": -1, "Sch id": "AIL104", "Type": "Primary", "Authority": "Public", "Island": "Jeh", "x": 168.9702, "y": 7.5889 }, "geometry": { "type": "Point", "coordinates": [ 168.9702, 7.5889 ] } },
{ "type": "Feature", "properties": { "Name": "Jobwan Elementary School", "tessellate": -1, "extrude": 0, "visibility": -1, "Sch id": "AIL105", "Type": "Primary", "Authority": "Public", "Island": "Jobwan", "x": 168.82007091884734, "y": 7.2783041265679076 }, "geometry": { "type": "Point", "coordinates": [ 168.820070918846994, 7.27830412656791 ] } },
{ "type": "Feature", "properties": { "Name": "Katiej Elementary School", "tessellate": -1, "extrude": 0, "visibility": -1, "Sch id": "AIL106", "Type": "Primary", "Authority": "Public", "Island": "Katiej", "x": 168.69526597838723, "y": 7.4703842588262344 }, "geometry": { "type": "Point", "coordinates": [ 168.695265978386999, 7.47038425882623 ] } },
{ "type": "Feature", "properties": { "Name": "Kaven Elementary School", "tessellate": -1, "extrude": 0, "visibility": -1, "Sch id": "MAL103", "Type": "Primary", "Authority": "Public", "Island": "Kaven", "x": 170.84383568366133, "y": 8.8930144788062293 }, "geometry": { "type": "Point", "coordinates": [ 170.843835683661013, 8.893014478806229 ] } },
{ "type": "Feature", "properties": { "Name": "Kilange Elementary School", "tessellate": -1, "extrude": 0, "visibility": -1, "Sch id": "ARN105", "Type": "Primary", "Authority": "Public", "Island": "Kilange", "x": 171.8785, "y": 7.0865 }, "geometry": { "type": "Point", "coordinates": [ 171.8785, 7.0865 ] } },
{ "type": "Feature", "properties": { "Name": "Kili elementary School", "tessellate": -1, "extrude": 0, "visibility": -1, "Sch id": "KIL102", "Type": "Primary", "Authority": "Public", "Island": "Kili", "x": 169.12053273329369, "y": 5.6427838705666078 }, "geometry": { "type": "Point", "coordinates": [ 169.120532733293999, 5.64278387056661 ] } },
{ "type": "Feature", "properties": { "Name": "Lae Elementary School", "tessellate": -1, "extrude": 0, "visibility": -1, "Sch id": "LAE101", "Type": "Primary", "Authority": "Public", "Island": "Lae", "x": 166.2634, "y": 8.9218 }, "geometry": { "type": "Point", "coordinates": [ 166.2634, 8.9218 ] } },
{ "type": "Feature", "properties": { "Name": "Laura Elementary School", "tessellate": -1, "extrude": 0, "visibility": -1, "Sch id": "MAJ109", "Type": "Primary", "Authority": "Public", "Island": "Laura", "x": 171.0358, "y": 7.1455 }, "geometry": { "type": "Point", "coordinates": [ 171.0358, 7.1455 ] } },
{ "type": "Feature", "properties": { "Name": "Laura High School", "tessellate": -1, "extrude": 0, "visibility": -1, "Sch id": "MAJ111", "Type": "Secondary", "Authority": "Public", "Island": "Laura", "x": 171.038333, "y": 7.13834 }, "geometry": { "type": "Point", "coordinates": [ 171.038333, 7.13834 ] } },
{ "type": "Feature", "properties": { "Name": "Laura SDA Elementary School", "tessellate": -1, "extrude": 0, "visibility": -1, "Sch id": "MAJ110", "Type": "Primary", "Authority": "Seventh Day Adventist Church", "Island": "Laura", "x": 171.037, "y": 7.1497 }, "geometry": { "type": "Point", "coordinates": [ 171.037, 7.1497 ] } },
{ "type": "Feature", "properties": { "Name": "Lib Elementary School", "tessellate": -1, "extrude": 0, "visibility": -1, "Sch id": "LIB101", "Type": "Primary", "Authority": "Public", "Island": "Lib", "x": 167.37493725643381, "y": 8.3139287821691177 }, "geometry": { "type": "Point", "coordinates": [ 167.374937256434009, 8.313928782169119 ] } },
{ "type": "Feature", "properties": { "Name": "Likiep Elementary School", "tessellate": -1, "extrude": 0, "visibility": -1, "Sch id": "LIK102", "Type": "Primary", "Authority": "Public", "Island": "Likiep", "x": 169.3093, "y": 9.8271 }, "geometry": { "type": "Point", "coordinates": [ 169.3093, 9.8271 ] } },
{ "type": "Feature", "properties": { "Name": "Loen Elementary School", "tessellate": -1, "extrude": 0, "visibility": -1, "Sch id": "NAU101", "Type": "Primary", "Authority": "Public", "Island": "Loen", "x": 168.22911810499568, "y": 7.7617451617917403 }, "geometry": { "type": "Point", "coordinates": [ 168.22911810499599, 7.76174516179174 ] } },
{ "type": "Feature", "properties": { "Name": "Long Island Elementary School", "tessellate": -1, "extrude": 0, "visibility": -1, "Sch id": "MAJ112", "Type": "Primary", "Authority": "Public", "Island": "Long Island", "x": 171.037, "y": 7.1497 }, "geometry": { "type": "Point", "coordinates": [ 171.037, 7.1497 ] } },
{ "type": "Feature", "properties": { "Name": "Longar Elementary School", "tessellate": -1, "extrude": 0, "visibility": -1, "Sch id": "ARN106", "Type": "Primary", "Authority": "Public", "Island": "Longar", "x": 171.9233, "y": 7.1278 }, "geometry": { "type": "Point", "coordinates": [ 171.9233, 7.1278 ] } },
{ "type": "Feature", "properties": { "Name": "Lukoj Elementary School", "tessellate": -1, "extrude": 0, "visibility": -1, "Sch id": "ARN107", "Type": "Primary", "Authority": "Public", "Island": "Lukoj", "x": 171.58780812648681, "y": 7.01289917468642 }, "geometry": { "type": "Point", "coordinates": [ 171.587808126487005, 7.01289917468642 ] } },
{ "type": "Feature", "properties": { "Name": "Lukonwod Elementary School", "tessellate": -1, "extrude": 0, "visibility": -1, "Sch id": "MIL102", "Type": "Primary", "Authority": "Public", "Island": "Lukonwod", "x": 172.0621, "y": 6.0155 }, "geometry": { "type": "Point", "coordinates": [ 172.0621, 6.0155 ] } },
{ "type": "Feature", "properties": { "Name": "Mae Elementary School", "tessellate": -1, "extrude": 0, "visibility": -1, "Sch id": "NAU102", "Type": "Primary", "Authority": "Public", "Island": "Mae", "x": 168.3047548641598, "y": 7.8273549389057102 }, "geometry": { "type": "Point", "coordinates": [ 168.304754864160003, 7.82735493890571 ] } },
{ "type": "Feature", "properties": { "Name": "Majkin Elementary School", "tessellate": -1, "extrude": 0, "visibility": -1, "Sch id": "NAU103", "Type": "Primary", "Authority": "Public", "Island": "Majkin", "x": 168.18113438392083, "y": 8.1586574148464557 }, "geometry": { "type": "Point", "coordinates": [ 168.181134383921005, 8.158657414846459 ] } },
{ "type": "Feature", "properties": { "Name": "Matolen Elementary School", "tessellate": -1, "extrude": 0, "visibility": -1, "Sch id": "ARN108", "Type": "Primary", "Authority": "Public", "Island": "Matolen", "x": 171.73681495323311, "y": 6.9606820704476657 }, "geometry": { "type": "Point", "coordinates": [ 171.736814953232994, 6.96068207044766 ] } },
{ "type": "Feature", "properties": { "Name": "Mejatto Elementary School", "tessellate": -1, "extrude": 0, "visibility": -1, "Sch id": "RON101", "Type": "Primary", "Authority": "Public", "Island": "Mejatto", "x": 166.8749, "y": 9.3121 }, "geometry": { "type": "Point", "coordinates": [ 166.8749, 9.3121 ] } },
{ "type": "Feature", "properties": { "Name": "Mejel Elementary School", "tessellate": -1, "extrude": 0, "visibility": -1, "Sch id": "AIL107", "Type": "Primary", "Authority": "Public", "Island": "Mejel", "x": 168.93912613078501, "y": 7.5309229561797162 }, "geometry": { "type": "Point", "coordinates": [ 168.939126130785013, 7.53092295617972 ] } },
{ "type": "Feature", "properties": { "Name": "Mejit Elementary School", "tessellate": -1, "extrude": 0, "visibility": -1, "Sch id": "MEJ101", "Type": "Primary", "Authority": "Public", "Island": "Mejit", "x": 170.86492635502267, "y": 10.2771 }, "geometry": { "type": "Point", "coordinates": [ 170.864926355022988, 10.2771 ] } },
{ "type": "Feature", "properties": { "Name": "Mejrirok Elementary School", "tessellate": -1, "extrude": 0, "visibility": -1, "Sch id": "JAL107", "Type": "Primary", "Authority": "Public", "Island": "Mejrirok", "x": 169.52501635367105, "y": 5.8643401351643618 }, "geometry": { "type": "Point", "coordinates": [ 169.525016353670992, 5.86434013516436 ] } },
{ "type": "Feature", "properties": { "Name": "Melang Elementary School", "tessellate": -1, "extrude": 0, "visibility": -1, "Sch id": "LIK103", "Type": "Primary", "Authority": "Public", "Island": "Melang", "x": 169.2617, "y": 9.8962 }, "geometry": { "type": "Point", "coordinates": [ 169.2617, 9.8962 ] } },
{ "type": "Feature", "properties": { "Name": "Mili Elementary School", "tessellate": -1, "extrude": 0, "visibility": -1, "Sch id": "MIL103", "Type": "Primary", "Authority": "Public", "Island": "Mili", "x": 171.7385, "y": 6.0828 }, "geometry": { "type": "Point", "coordinates": [ 171.7385, 6.0828 ] } },
{ "type": "Feature", "properties": { "Name": "Nallo Elementary School", "tessellate": -1, "extrude": 0, "visibility": -1, "Sch id": "MIL104", "Type": "Primary", "Authority": "Public", "Island": "Nallo", "x": 171.7185, "y": 6.2027 }, "geometry": { "type": "Point", "coordinates": [ 171.7185, 6.2027 ] } },
{ "type": "Feature", "properties": { "Name": "Namdrik Elementary School", "tessellate": -1, "extrude": 0, "visibility": -1, "Sch id": "NAM101", "Type": "Primary", "Authority": "Public", "Island": "Namdrik", "x": 168.101, "y": 5.5993 }, "geometry": { "type": "Point", "coordinates": [ 168.101, 5.5993 ] } },
{ "type": "Feature", "properties": { "Name": "Namu Elementary School", "tessellate": -1, "extrude": 0, "visibility": -1, "Sch id": "NAU104", "Type": "Primary", "Authority": "Public", "Island": "Namu", "x": 167.98281465424958, "y": 8.1891141538711079 }, "geometry": { "type": "Point", "coordinates": [ 167.982814654250006, 8.18911415387111 ] } },
{ "type": "Feature", "properties": { "Name": "Narmij Elementary School", "tessellate": -1, "extrude": 0, "visibility": -1, "Sch id": "JAL108", "Type": "Primary", "Authority": "Public", "Island": "Narmij", "x": 169.50586342770055, "y": 6.2389964371350581 }, "geometry": { "type": "Point", "coordinates": [ 169.505863427701001, 6.23899643713506 ] } },
{ "type": "Feature", "properties": { "Name": "Ollet Elementary School", "tessellate": -1, "extrude": 0, "visibility": -1, "Sch id": "MAL104", "Type": "Primary", "Authority": "Public", "Island": "Ollet", "x": 171.17377938270434, "y": 8.767705900735292 }, "geometry": { "type": "Point", "coordinates": [ 171.173779382703998, 8.76770590073529 ] } },
{ "type": "Feature", "properties": { "Name": "Rairok Elementary School", "tessellate": -1, "extrude": 0, "visibility": -1, "Sch id": "MAJ121", "Type": "Primary", "Authority": "Public", "Island": "Rairok", "x": 171.32148379582071, "y": 7.0756965492538937 }, "geometry": { "type": "Point", "coordinates": [ 171.321483795820996, 7.07569654925389 ] } },
{ "type": "Feature", "properties": { "Name": "Life Skills Academy", "tessellate": -1, "extrude": 0, "visibility": -1, "Sch id": "MAJ113", "Type": "Secondary", "Authority": "Public", "Island": "Rita", "x": 171.3834, "y": 7.0923 }, "geometry": { "type": "Point", "coordinates": [ 171.3834, 7.0923 ] } },
{ "type": "Feature", "properties": { "Name": "Majuro Baptist Elementary School", "tessellate": -1, "extrude": 0, "visibility": -1, "Sch id": "MAJ114", "Type": "Primary", "Authority": "Baptist Church", "Island": "Rita", "x": 171.366, "y": 7.1186 }, "geometry": { "type": "Point", "coordinates": [ 171.366, 7.1186 ] } },
{ "type": "Feature", "properties": { "Name": "Majuro Baptist High School", "tessellate": -1, "extrude": 0, "visibility": -1, "Sch id": "MAJ115", "Type": "Secondary", "Authority": "Baptist Church", "Island": "Rita", "x": 171.366, "y": 7.1186 }, "geometry": { "type": "Point", "coordinates": [ 171.366, 7.1186 ] } },
{ "type": "Feature", "properties": { "Name": "Majuro Middle School", "tessellate": -1, "extrude": 0, "visibility": -1, "Sch id": "MAJ120", "Type": "Primary", "Authority": "Public", "Island": "Rita", "x": 171.3664, "y": 7.1177 }, "geometry": { "type": "Point", "coordinates": [ 171.3664, 7.1177 ] } },
{ "type": "Feature", "properties": { "Name": "Marshall Islands High School", "tessellate": -1, "extrude": 0, "visibility": -1, "Sch id": "MAJ119", "Type": "Secondary", "Authority": "Public", "Island": "Rita", "x": 171.366, "y": 7.1186 }, "geometry": { "type": "Point", "coordinates": [ 171.366, 7.1186 ] } },
{ "type": "Feature", "properties": { "Name": "Rita Christian Elementary School", "tessellate": -1, "extrude": 0, "visibility": -1, "Sch id": "MAJ123", "Type": "Primary", "Authority": "United Church of Christ", "Island": "Rita", "x": 171.378, "y": 7.102 }, "geometry": { "type": "Point", "coordinates": [ 171.378, 7.102 ] } },
{ "type": "Feature", "properties": { "Name": "Rita Christian High School", "tessellate": -1, "extrude": 0, "visibility": -1, "Sch id": "MAJ124", "Type": "Secondary", "Authority": "United Church of Christ", "Island": "Rita", "x": 171.378, "y": 7.102 }, "geometry": { "type": "Point", "coordinates": [ 171.378, 7.102 ] } },
{ "type": "Feature", "properties": { "Name": "Rita Elementary School", "tessellate": -1, "extrude": 0, "visibility": -1, "Sch id": "MAJ122", "Type": "Primary", "Authority": "Public", "Island": "Rita", "x": 171.3646, "y": 7.121 }, "geometry": { "type": "Point", "coordinates": [ 171.3646, 7.121 ] } },
{ "type": "Feature", "properties": { "Name": "Marshall Christians High School", "tessellate": -1, "extrude": 0, "visibility": -1, "Sch id": "MAJ118", "Type": "Secondary", "Authority": "United Church of Christ", "Island": "RonRon", "x": 171.078, "y": 7.216 }, "geometry": { "type": "Point", "coordinates": [ 171.078, 7.216 ] } },
{ "type": "Feature", "properties": { "Name": "RonRon Protestant Elementary School", "tessellate": -1, "extrude": 0, "visibility": -1, "Sch id": "MAJ125", "Type": "Primary", "Authority": "United Church of Christ", "Island": "RonRon", "x": 171.078, "y": 7.216 }, "geometry": { "type": "Point", "coordinates": [ 171.078, 7.216 ] } },
{ "type": "Feature", "properties": { "Name": "Tarawa Elementary School", "tessellate": -1, "extrude": 0, "visibility": -1, "Sch id": "MAL105", "Type": "Primary", "Authority": "Public", "Island": "Tarawa", "x": 171.22531566642792, "y": 8.7039319079801061 }, "geometry": { "type": "Point", "coordinates": [ 171.225315666428003, 8.70393190798011 ] } },
{ "type": "Feature", "properties": { "Name": "Tinak Elementary School", "tessellate": -1, "extrude": 0, "visibility": -1, "Sch id": "ARN109", "Type": "Primary", "Authority": "Public", "Island": "Tinak", "x": 171.55497646869594, "y": 7.05849389786981 }, "geometry": { "type": "Point", "coordinates": [ 171.554976468695997, 7.05849389786981 ] } },
{ "type": "Feature", "properties": { "Name": "Tobal Elementary School", "tessellate": -1, "extrude": 0, "visibility": -1, "Sch id": "AUR102", "Type": "Primary", "Authority": "Public", "Island": "Tobal", "x": 171.1669, "y": 8.3097 }, "geometry": { "type": "Point", "coordinates": [ 171.1669, 8.3097 ] } },
{ "type": "Feature", "properties": { "Name": "Toka Elementary School", "tessellate": -1, "extrude": 0, "visibility": -1, "Sch id": "EBO103", "Type": "Primary", "Authority": "Public", "Island": "Toka", "x": 168.6477, "y": 4.6343 }, "geometry": { "type": "Point", "coordinates": [ 168.6477, 4.6343 ] } },
{ "type": "Feature", "properties": { "Name": "Tokewa Elementary School", "tessellate": -1, "extrude": 0, "visibility": -1, "Sch id": "MIL105", "Type": "Primary", "Authority": "Public", "Island": "Tokewa", "x": 171.8004, "y": 6.2266 }, "geometry": { "type": "Point", "coordinates": [ 171.8004, 6.2266 ] } },
{ "type": "Feature", "properties": { "Name": "Tutu Elementary School", "tessellate": -1, "extrude": 0, "visibility": -1, "Sch id": "ARN110", "Type": "Primary", "Authority": "Public", "Island": "Tutu", "x": 171.68284916171058, "y": 7.1295345334126301 }, "geometry": { "type": "Point", "coordinates": [ 171.682849161711005, 7.12953453341263 ] } },
{ "type": "Feature", "properties": { "Name": "Ujae Elementary School", "tessellate": -1, "extrude": 0, "visibility": -1, "Sch id": "UJA101", "Type": "Primary", "Authority": "Public", "Island": "Ujae", "x": 165.7644, "y": 8.9311 }, "geometry": { "type": "Point", "coordinates": [ 165.7644, 8.9311 ] } },
{ "type": "Feature", "properties": { "Name": "Ulien Elementary School", "tessellate": -1, "extrude": 0, "visibility": -1, "Sch id": "ARN111", "Type": "Primary", "Authority": "Public", "Island": "Ulien", "x": 171.56870864970804, "y": 7.1200706427065343 }, "geometry": { "type": "Point", "coordinates": [ 171.568708649707986, 7.12007064270653 ] } },
{ "type": "Feature", "properties": { "Name": "Assumption Elementary School", "tessellate": -1, "extrude": 0, "visibility": -1, "Sch id": "MAJ103", "Type": "Primary", "Authority": "Roman catholic Church", "Island": "Uliga", "x": 171.3787, "y": 7.1021 }, "geometry": { "type": "Point", "coordinates": [ 171.3787, 7.1021 ] } },
{ "type": "Feature", "properties": { "Name": "Assumption Secondary School", "tessellate": -1, "extrude": 0, "visibility": -1, "Sch id": "MAJ104", "Type": "Secondary", "Authority": "Roman catholic Church", "Island": "Uliga", "x": 171.3787, "y": 7.1021 }, "geometry": { "type": "Point", "coordinates": [ 171.3787, 7.1021 ] } },
{ "type": "Feature", "properties": { "Name": "Uliga Elementary School", "tessellate": -1, "extrude": 0, "visibility": -1, "Sch id": "MAJ126", "Type": "Primary", "Authority": "Public", "Island": "Uliga", "x": 171.3782, "y": 7.1026 }, "geometry": { "type": "Point", "coordinates": [ 171.3782, 7.1026 ] } },
{ "type": "Feature", "properties": { "Name": "College of the Marshall Islands", "tessellate": -1, "extrude": 0, "visibility": -1, "Sch id": "COL101", "Type": "College", "Authority": "Public", "Island": "Uliga", "x": 171.3782, "y": 7.1026 }, "geometry": { "type": "Point", "coordinates": [ 171.3782, 7.1026 ] } },
{ "type": "Feature", "properties": { "Name": "Utrik Elementary School", "tessellate": -1, "extrude": 0, "visibility": -1, "Sch id": "UTR101", "Type": "Primary", "Authority": "Public", "Island": "Utrik", "x": 169.8504, "y": 11.2274 }, "geometry": { "type": "Point", "coordinates": [ 169.8504, 11.2274 ] } },
{ "type": "Feature", "properties": { "Name": "Wodmej elementary School", "tessellate": -1, "extrude": 0, "visibility": -1, "Sch id": "WTH102", "Type": "Primary", "Authority": "Public", "Island": "Wodmej", "x": 170.15258732131272, "y": 9.5503184039792384 }, "geometry": { "type": "Point", "coordinates": [ 170.152587321313007, 9.55031840397924 ] } },
{ "type": "Feature", "properties": { "Name": "Woja Elementary School", "tessellate": -1, "extrude": 0, "visibility": -1, "Sch id": "AIL108", "Type": "Primary", "Authority": "Public", "Island": "Woja", "x": 168.54927136732266, "y": 7.442002651384084 }, "geometry": { "type": "Point", "coordinates": [ 168.549271367323001, 7.44200265138408 ] } },
{ "type": "Feature", "properties": { "Name": "Woja Elementary School", "tessellate": -1, "extrude": 0, "visibility": -1, "Sch id": "MAJ127", "Type": "Primary", "Authority": "Public", "Island": "Woja", "x": 171.0989, "y": 7.1005 }, "geometry": { "type": "Point", "coordinates": [ 171.0989, 7.1005 ] } },
{ "type": "Feature", "properties": { "Name": "Wotho Elementary School", "tessellate": -1, "extrude": 0, "visibility": -1, "Sch id": "WOT101", "Type": "Primary", "Authority": "Public", "Island": "Wotho", "x": 166.00593138165007, "y": 10.168568241511679 }, "geometry": { "type": "Point", "coordinates": [ 166.005931381649987, 10.1685682415117 ] } },
{ "type": "Feature", "properties": { "Name": "Northern Islands High School", "tessellate": -1, "extrude": 0, "visibility": -1, "Sch id": "WTH101", "Type": "Secondary", "Authority": "Public", "Island": "Wotje", "x": 170.2382223551038, "y": 9.4640374837802774 }, "geometry": { "type": "Point", "coordinates": [ 170.238222355104, 9.464037483780279 ] } },
{ "type": "Feature", "properties": { "Name": "Wotje Elementary School", "tessellate": -1, "extrude": 0, "visibility": -1, "Sch id": "WTH103", "Type": "Primary", "Authority": "Public", "Island": "Wotje", "x": 170.23666709126297, "y": 9.4577822199394461 }, "geometry": { "type": "Point", "coordinates": [ 170.236667091263001, 9.45778221993945 ] } }
]
}
